[
  {
    "id": 101,
    "name": "Співдія Хаб Дніпро",
    "category": "NGO",
    "lat": 48.4632,
    "lng": 35.0445,
    "description": "Один із найбільших волонтерських хабів країни. Допомога цивільним, молодіжні ініціативи та простір для волонтерів.",
    "address": "пр. Дмитра Яворницького, 75",
    "link": "https://spivdiia.org.ua/"
  },
  {
    "id": 102,
    "name": "Молодіжний центр Дніпра (МЦД)",
    "category": "МЦ",
    "lat": 48.4598,
    "lng": 35.0527,
    "description": "Епіцентр молодіжного життя міста: тренінги, настільні ігри, лекції та коворкінг для активної молоді.",
    "address": "вул. Набережна Перемоги, 5",
    "link": "https://www.instagram.com/molod_center_dnipro/"
  },
  {
    "id": 103,
    "name": "Coworking 365",
    "category": "Коворкінг",
    "lat": 48.4682,
    "lng": 35.0498,
    "description": "Сучасний простір для роботи з безперебійним інтернетом та світлом. Ідеально для фрілансерів.",
    "address": "вул. Харківська, 8А",
    "link": "https://coworking365.com.ua/"
  },
  {
    "id": 104,
    "name": "Арт-простір «7-ме небо»",
    "category": "Культура",
    "lat": 48.4611,
    "lng": 35.0652,
    "description": "Творчий простір для виставок, концертів та літературних вечорів у самому центрі.",
    "address": "вул. Михайла Коцюбинського, 1",
    "link": "https://www.instagram.com/7nebo_dp/"
  },
  {
    "id": 105,
    "name": "Центр сучасної культури (DCCC)",
    "category": "Культура",
    "lat": 48.4589,
    "lng": 35.0415,
    "description": "Культурна інституція міжнародного рівня: галереї, бібліотека, медіалаб та офіси громадських організацій.",
    "address": "узвіз Крутогірний, 21",
    "link": "https://dniprocenter.com/"
  },
  {
    "id": 106,
    "name": "Creative States of Dnipro",
    "category": "Коворкінг",
    "lat": 48.4655,
    "lng": 35.0451,
    "description": "Преміальний бізнес-простір у БЦ «Кудашевський». Найвищий рівень комфорту для роботи.",
    "address": "вул. барикадна, 16",
    "link": "https://creativestates.net/"
  },
  {
    "id": 107,
    "name": "Гончаренко Центр",
    "category": "Освіта",
    "lat": 48.4674,
    "lng": 35.0471,
    "description": "Безкоштовний освітньо-культурний простір: курси англійської, підготовка до НМТ та майстер-класи.",
    "address": "вул. Старокозацька, 40Б",
    "link": "https://goncharenkocentre.com.ua/"
  },
  {
    "id": 108,
    "name": "I-HUB Dnipro",
    "category": "Коворкінг",
    "lat": 48.4605,
    "lng": 35.0432,
    "description": "Технологічний хаб для стартапів та IT-спільноти міста. Регулярні івенти та воркшопи.",
    "address": "вул. Володимира Мономаха, 1",
    "link": "https://ihub.world/ua/dnipro-ua/"
  },
  {
    "id": 109,
    "name": "Книгарня «Є»",
    "category": "Освіта",
    "lat": 48.4628,
    "lng": 35.0465,
    "description": "Не просто магазин, а інтелектуальний простір для презентацій книг та дискусійних клубів.",
    "address": "вул. Глінки, 15",
    "link": "https://book-ye.com.ua/"
  },
  {
    "id": 110,
    "name": "Dnipro Smart City Hub",
    "category": "NGO",
    "lat": 48.4695,
    "lng": 35.0382,
    "description": "Майданчик для взаємодії влади та громади. Розробка цифрових рішень для міста.",
    "address": "пр. Дмитра Яворницького, 93",
    "link": "https://www.facebook.com/dniprosmartcity/"
  }
]