[
  {
    "id": 101,
    "name": "Співдія Хаб Дніпро",
    "category": "NGO",
    "lat": 48.4632,
    "lng": 35.0445,
    "image": "https://images.unsplash.com/photo-1593113598332-cd288d649433?auto=format&fit=crop&q=80&w=1000",
    "description": "Один із найбільших волонтерських хабів країни. Простір для молодіжних ініціатив, гуманітарної допомоги та навчання волонтерів.",
    "address": "пр. Дмитра Яворницького, 75",
    "link": "https://spivdiia.org.ua/"
  },
  {
    "id": 102,
    "name": "Молодіжний центр Дніпра",
    "category": "МЦ",
    "lat": 48.4598,
    "lng": 35.0527,
    "image": "https://images.unsplash.com/photo-1529156069898-49953e39b3ac?auto=format&fit=crop&q=80&w=1000",
    "description": "Головний простір для молоді міста. Тут проходять тренінги, дебати, настільні ігри та зустрічі з цікавими людьми.",
    "address": "вул. Набережна Перемоги, 5",
    "link": "https://www.instagram.com/molod_center_dnipro/"
  },
  {
    "id": 103,
    "name": "Coworking 365",
    "category": "КОВОРКІНГ",
    "lat": 48.4682,
    "lng": 35.0498,
    "image": "https://images.unsplash.com/photo-1497366216548-37526070297c?auto=format&fit=crop&q=80&w=1000",
    "description": "Сучасний коворкінг у самому центрі. Комфортні робочі місця, швидкісний інтернет та нетворкінг для IT та фрілансерів.",
    "address": "вул. Харківська, 8А",
    "link": "https://coworking365.com.ua/"
  },
  {
    "id": 104,
    "name": "Центр сучасної культури DCCC",
    "category": "КУЛЬТУРА",
    "lat": 48.4589,
    "lng": 35.0415,
    "image": "https://images.unsplash.com/photo-1554941068-a252680d25d9?auto=format&fit=crop&q=80&w=1000",
    "description": "Інноваційна культурна інституція: виставки сучасного мистецтва, медіалабораторії та громадські простори.",
    "address": "узвіз Крутогірний, 21",
    "link": "https://dniprocenter.com/"
  },
  {
    "id": 105,
    "name": "Creative States (Dnipro)",
    "category": "КОВОРКІНГ",
    "lat": 48.4655,
    "lng": 35.0451,
    "image": "https://images.unsplash.com/photo-1519389950473-47ba0277781c?auto=format&fit=crop&q=80&w=1000",
    "description": "Локація преміум-класу в БЦ Кудашевський. Професійна екосистема для бізнесу та стартапів.",
    "address": "вул. Барикадна, 16",
    "link": "https://creativestates.net/"
  },
  {
    "id": 106,
    "name": "Гончаренко Центр",
    "category": "ОСВІТА",
    "lat": 48.4674,
    "lng": 35.0471,
    "image": "https://images.unsplash.com/photo-1524178232363-1fb2b075b655?auto=format&fit=crop&q=80&w=1000",
    "description": "Безкоштовна освіта для всіх: курси мов, підготовка до тестів та творчі майстерні для підлітків.",
    "address": "вул. Старокозацька, 40Б",
    "link": "https://goncharenkocentre.com.ua/"
  },
  {
    "id": 107,
    "name": "I-HUB Dnipro",
    "category": "КОВОРКІНГ",
    "lat": 48.4605,
    "lng": 35.0432,
    "image": "https://images.unsplash.com/photo-1527192491265-7e15c55b1ed2?auto=format&fit=crop&q=80&w=1000",
    "description": "Технологічний хаб для молодих підприємців. Місце, де ідеї перетворюються на реальний бізнес.",
    "address": "вул. Володимира Мономаха, 1",
    "link": "https://ihub.world/"
  },
  {
    "id": 108,
    "name": "Книгарня «Є»",
    "category": "ОСВІТА",
    "lat": 48.4628,
    "lng": 35.0465,
    "image": "https://images.unsplash.com/photo-1524995997946-a1c2e315a42f?auto=format&fit=crop&q=80&w=1000",
    "description": "Культурний майданчик, де проходять лекції, презентації книг та дискусії про майбутнє України.",
    "address": "вул. Глінки, 15",
    "link": "https://book-ye.com.ua/"
  },
  {
    "id": 109,
    "name": "Dnipro Smart City Hub",
    "category": "NGO",
    "lat": 48.4695,
    "lng": 35.0382,
    "image": "https://images.unsplash.com/photo-1531482615713-2afd69097998?auto=format&fit=crop&q=80&w=1000",
    "description": "Центр цифровізації міста та активного громадянства. Розробка IT-проектів для громади Дніпра.",
    "address": "пр. Дмитра Яворницького, 93",
    "link": "https://www.facebook.com/dniprosmartcity/"
  },
  {
    "id": 110,
    "name": "Простір Little Mariupol",
    "category": "NGO",
    "lat": 48.4552,
    "lng": 35.0512,
    "image": "https://images.unsplash.com/photo-1522202176988-66273c2fd55f?auto=format&fit=crop&q=80&w=1000",
    "description": "Хаб переселенців, що став потужним волонтерським та культурним центром у Дніпрі.",
    "address": "пр. Гагаріна, 127",
    "link": "https://www.instagram.com/little.mariupol/"
  },
  {
    "id": 111,
    "name": "Sport Life Dnipro",
    "category": "СПОРТ",
    "lat": 48.4645,
    "lng": 35.0678,
    "image": "https://images.unsplash.com/photo-1534438327276-14e5300c3a48?auto=format&fit=crop&q=80&w=1000",
    "description": "Сучасний спортивний комплекс для підтримки здоров'я молоді та професійних тренувань.",
    "address": "вул. Маршала Малиновського, 2",
    "link": "https://www.sportlife.ua/"
  },
  {
    "id": 112,
    "name": "Арт-простір «7-ме небо»",
    "category": "КУЛЬТУРА",
    "lat": 48.4611,
    "lng": 35.0652,
    "image": "https://images.unsplash.com/photo-1460661419201-fd4cecea8f82?auto=format&fit=crop&q=80&w=1000",
    "description": "Майданчик для творчого самовираження: концерти, виставки та поетичні вечори під відкритим небом.",
    "address": "вул. Михайла Коцюбинського, 1",
    "link": "https://www.instagram.com/7nebo_dp/"
  }
]